City_ID,City,Country,Lat,Lng,Max Temp,Humidity,Cloudiness,Wind Speed,Current Description
0,Kapaa,US,22.0752,-159.319,84.52,73,75,11.5,broken clouds
1,Kenora,CA,49.8167,-94.4337,83.37,44,20,11.5,few clouds
2,Khatanga,RU,71.9667,102.5,50.95,87,100,13.44,light rain
3,Tasiilaq,GL,65.6145,-37.6368,48.36,58,20,4.41,few clouds
4,Sambava,MG,-14.2667,50.1667,69.58,87,63,9.24,light rain
5,Okmulgee,US,35.6234,-95.9605,84.9,65,0,6.91,clear sky
6,Kahului,US,20.8947,-156.47,91.42,43,20,24.16,few clouds
7,Half Moon Bay,US,37.4636,-122.4286,79.61,77,100,14.97,overcast clouds
8,Bethel,US,41.3712,-73.414,86.36,47,3,1.99,clear sky
9,Cape Town,ZA,-33.9258,18.4232,48.9,92,20,4.61,fog
10,Hilo,US,19.7297,-155.09,90.28,76,100,11.5,overcast clouds
11,Rikitea,PF,-23.1203,-134.9692,72.16,76,10,16.13,light rain
12,Strezhevoy,RU,60.7333,77.5889,61.56,94,100,8.32,overcast clouds
13,Dingle,PH,10.9995,122.6711,76.21,89,100,4.65,overcast clouds
14,Hermanus,ZA,-34.4187,19.2345,46.8,71,81,6.24,light rain
15,Cidreira,BR,-30.1811,-50.2056,54.55,77,0,5.75,clear sky
16,Albany,US,42.6001,-73.9662,81.57,50,24,1.01,few clouds
17,Miles City,US,46.4083,-105.8406,99.57,15,40,14.97,scattered clouds
18,Provideniya,RU,64.3833,-173.3,53.35,65,98,3.36,overcast clouds
19,Adrar,MR,20.5022,-10.0711,93.33,32,44,9.84,scattered clouds
20,Blackfoot,US,43.1905,-112.345,93.88,8,1,10.63,clear sky
21,Bluff,NZ,-46.6,168.3333,46.76,79,99,15.86,overcast clouds
22,Cabra,ES,37.4725,-4.4421,78.85,56,0,6.78,clear sky
23,Lebu,CL,-37.6167,-73.65,49.32,86,95,8.97,overcast clouds
24,Eyl,SO,7.9803,49.8164,75.87,80,100,21.88,overcast clouds
25,Huarmey,PE,-10.0681,-78.1522,65.61,75,73,9.28,broken clouds
26,Praia,CV,14.9215,-23.5087,77.54,78,75,10.36,broken clouds
27,Sistranda,NO,63.7256,8.834,55.36,80,100,4.74,overcast clouds
28,Mount Gambier,AU,-37.8333,140.7667,45.46,89,100,13.78,light rain
29,Lensk,RU,60.7253,114.9278,62.47,88,60,2.59,broken clouds
30,Fortuna,US,40.5982,-124.1573,74.93,72,20,13.8,few clouds
31,Broome,US,42.2506,-75.833,82.71,54,75,9.22,broken clouds
32,Ondjiva,AO,-17.0667,15.7333,60.31,28,3,4.59,clear sky
33,Maniitsoq,GL,65.4167,-52.9,44.24,90,99,10.96,overcast clouds
34,Nurota,UZ,40.5614,65.6886,75.72,34,0,6.91,clear sky
35,Bredasdorp,ZA,-34.5322,20.0403,48.63,86,92,5.82,overcast clouds
36,Puerto Ayora,EC,-0.7393,-90.3518,80.56,86,56,7.0,broken clouds
37,Mayumba,GA,-3.432,10.6554,70.5,92,85,4.94,overcast clouds
38,Lakes Entrance,AU,-37.8811,147.981,48.15,61,99,8.25,overcast clouds
39,Jamestown,US,42.097,-79.2353,76.05,48,75,10.36,broken clouds
40,Burgeo,CA,47.6167,-57.6152,65.12,86,100,10.92,overcast clouds
41,Khasan,RU,42.4308,130.6434,72.14,97,100,3.33,overcast clouds
42,Butaritari,KI,3.0707,172.7902,80.94,72,99,15.73,overcast clouds
43,Dunedin,NZ,-45.8742,170.5036,44.8,72,100,15.01,overcast clouds
44,Spirit River,CA,55.7833,-118.8361,66.63,57,81,2.55,broken clouds
45,Severo-Kurilsk,RU,50.6789,156.125,53.87,90,93,1.66,overcast clouds
46,Skibbereen,IE,51.55,-9.2667,63.1,98,100,15.99,overcast clouds
47,Grindavik,IS,63.8424,-22.4338,51.75,76,75,13.8,broken clouds
48,Zhaoyuan,CN,37.3592,120.3964,76.57,88,71,3.06,broken clouds
49,Marzuq,YE,14.4,46.4667,79.59,58,53,15.66,light rain
50,New Norfolk,AU,-42.7826,147.0587,47.91,79,100,3.27,light rain
51,Lompoc,US,34.6391,-120.4579,77.0,62,0,13.8,clear sky
52,Guerrero Negro,MX,27.9769,-114.0611,81.07,48,64,14.41,broken clouds
53,Solnechnyy,RU,50.7214,136.6319,65.32,78,97,5.88,overcast clouds
54,Sao Jose Da Coroa Grande,BR,-8.8978,-35.1478,76.6,86,99,9.26,overcast clouds
55,Iqaluit,CA,63.7506,-68.5145,40.73,93,100,9.22,light rain
56,Zhezkazgan,KZ,47.8043,67.7144,64.71,76,14,7.7,few clouds
57,Mar Del Plata,AR,-38.0023,-57.5575,53.1,90,0,5.99,clear sky
58,Sulangan,PH,11.1373,123.7228,83.28,76,97,9.19,light rain
59,Camabatela,AO,-8.1881,15.375,60.66,74,0,5.21,clear sky
60,Baruun-Urt,MN,46.6806,113.2792,60.22,81,0,3.2,clear sky
61,Ribeira Grande,PT,38.5167,-28.7,74.59,67,15,2.66,few clouds
62,Barcelos,PT,41.5388,-8.6151,75.34,47,0,5.39,clear sky
63,Acajutla,SV,13.5928,-89.8275,83.98,75,84,5.35,broken clouds
64,Nikolskoye,RU,59.7035,30.7861,57.79,96,5,4.56,clear sky
65,Ushuaia,AR,-54.8,-68.3,44.26,61,20,18.41,few clouds
66,Yellowknife,CA,62.456,-114.3525,59.52,82,100,4.61,light intensity shower rain
67,Pitogo,PH,13.7847,122.0881,79.29,85,99,4.21,overcast clouds
68,Abha,SA,18.2164,42.5053,69.62,83,0,0.0,clear sky
69,Husavik,IS,66.0449,-17.3389,41.9,95,100,15.95,overcast clouds
70,Pevek,RU,69.7008,170.3133,45.16,70,9,13.58,clear sky
71,San Angelo,US,31.4638,-100.437,103.1,20,48,5.99,scattered clouds
72,Punta Arenas,CL,-53.15,-70.9167,42.91,65,40,6.91,scattered clouds
73,Matara,LK,5.9485,80.5353,76.87,91,100,8.52,overcast clouds
74,Barrow,US,71.2906,-156.7887,41.36,77,100,7.94,overcast clouds
75,Hithadhoo,MV,-0.6,73.0833,80.76,76,100,18.39,overcast clouds
76,Dalaba,GN,10.7,-12.25,62.28,99,98,3.06,light rain
77,Mataura,NZ,-46.1927,168.8643,39.78,94,99,6.51,overcast clouds
78,Esperance,AU,-33.8667,121.9,47.17,80,59,17.49,broken clouds
79,Mahebourg,MU,-20.4081,57.7,70.25,68,40,18.41,scattered clouds
80,Agulu,NG,6.11,7.0724,71.91,95,100,3.6,overcast clouds
81,Luanda,AO,-8.8368,13.2343,69.8,88,20,8.05,few clouds
82,Hobart,AU,-42.8794,147.3294,48.25,80,75,8.05,broken clouds
83,Tondano,ID,1.3038,124.9112,66.29,93,97,2.66,overcast clouds
84,Witu,KE,-2.3889,40.4382,73.56,88,22,11.18,few clouds
85,Vaini,TO,-21.2,-175.2,78.96,94,40,9.22,scattered clouds
86,Dikson,RU,73.5069,80.5464,40.68,93,16,11.79,few clouds
87,Hirara,JP,24.8,125.2833,82.67,89,75,5.75,broken clouds
88,Nhulunbuy,AU,-12.2333,136.7667,74.01,88,100,9.22,overcast clouds
89,Smithers,CA,54.7804,-127.1743,82.72,44,20,4.61,few clouds
90,Buritis,BR,-15.6178,-46.4233,76.64,28,1,2.26,clear sky
91,Carnarvon,AU,-24.8667,113.6333,59.23,58,73,14.0,broken clouds
92,Borogontsy,RU,62.6683,131.1683,69.94,82,80,4.47,broken clouds
93,Caravelas,BR,-17.7125,-39.2481,72.91,90,4,4.52,clear sky
94,Avarua,CK,-21.2078,-159.775,78.85,73,75,18.41,broken clouds
95,Upata,VE,8.0086,-62.3989,81.19,92,74,3.69,broken clouds
96,Tuktoyaktuk,CA,69.4541,-133.0374,42.8,70,75,8.05,broken clouds
97,Mocuba,MZ,-16.8392,36.9856,62.13,96,25,1.92,scattered clouds
98,Northam,GB,51.0333,-4.2167,65.39,98,100,14.7,overcast clouds
99,Ailigandi,PA,9.2333,-78.0167,83.71,81,100,6.51,overcast clouds
100,Sitka,US,57.0531,-135.33,58.89,94,100,4.61,mist
101,East London,ZA,-33.0153,27.9116,58.73,63,100,14.23,overcast clouds
102,Atuona,PF,-9.8,-139.0333,76.82,78,11,16.24,few clouds
103,Tiksi,RU,71.6872,128.8694,48.34,78,43,4.43,scattered clouds
104,Grootfontein,NA,-19.5667,18.1167,53.17,37,2,3.44,clear sky
105,Plettenberg Bay,ZA,-34.0527,23.3716,51.69,82,30,11.34,light rain
106,Sao Filipe,CV,14.8961,-24.4956,77.38,79,92,8.95,overcast clouds
107,Sao Felix Do Xingu,BR,-6.6447,-51.995,82.53,41,34,2.17,scattered clouds
108,Cayenne,GF,4.9333,-52.3333,82.09,1,45,2.3,scattered clouds
109,Urubicha,BO,-15.3833,-62.95,76.06,43,2,2.15,clear sky
110,Bulgan,MN,48.8125,103.5347,56.3,69,72,3.85,broken clouds
111,Dodge City,US,37.7528,-100.0171,80.22,51,96,8.88,overcast clouds
112,Thompson,CA,55.7435,-97.8558,69.96,40,75,5.75,broken clouds
113,Urmary,RU,55.6789,47.944,59.27,96,17,3.53,few clouds
114,Lavrentiya,RU,65.5833,-171.0,48.24,69,99,4.23,overcast clouds
115,Ponta Do Sol,PT,32.6667,-17.1,74.01,82,8,6.89,clear sky
116,Qaanaaq,GL,77.484,-69.3632,44.26,68,70,5.01,broken clouds
117,Bilma,NE,18.6853,12.9164,91.71,24,43,9.06,scattered clouds
118,Taoudenni,ML,22.6783,-3.9836,100.06,23,87,6.98,overcast clouds
119,Klaksvik,FO,62.2266,-6.589,49.12,87,90,8.63,overcast clouds
120,Port Alfred,ZA,-33.5906,26.891,56.71,66,87,15.68,overcast clouds
121,Busselton,AU,-33.65,115.3333,54.72,71,99,9.98,overcast clouds
122,Ponta Delgada,PT,37.7333,-25.6667,72.32,83,20,5.75,few clouds
123,Pak Phanang,TH,8.3511,100.202,79.07,83,100,5.82,overcast clouds
124,Constitucion,CL,-35.3333,-72.4167,52.97,80,100,3.83,overcast clouds
125,Mogocha,RU,53.7333,119.7667,59.7,100,100,1.63,overcast clouds
126,Red Wing,US,44.5625,-92.5338,85.8,54,75,6.91,broken clouds
127,Sehithwa,BW,-20.4667,22.7167,62.01,26,0,5.41,clear sky
128,Pangnirtung,CA,66.1451,-65.7125,60.8,55,100,21.85,light intensity shower rain
129,Forrest City,US,35.0081,-90.7898,85.64,67,76,8.37,broken clouds
130,Lagoa,PT,39.05,-27.9833,73.4,66,0,1.63,clear sky
131,Chepareria,KE,1.3077,35.2039,59.13,89,31,2.39,scattered clouds
132,Vanavara,RU,60.34,102.2797,58.69,98,29,2.91,scattered clouds
133,Rantauprapat,ID,2.1,99.8333,73.58,89,96,2.19,overcast clouds
134,Mugur-Aksy,RU,50.35,90.5,54.19,62,100,3.11,overcast clouds
135,Yaan,NG,7.3833,8.5667,71.65,95,100,6.78,overcast clouds
136,Canutama,BR,-6.5339,-64.3831,86.32,42,30,0.07,scattered clouds
137,Rocha,UY,-34.4833,-54.3333,47.86,86,33,2.08,scattered clouds
138,Saint-Philippe,RE,-21.3585,55.7679,71.11,82,57,14.85,light rain
139,Hasaki,JP,35.7333,140.8333,81.0,81,93,4.47,overcast clouds
140,Marawi,PH,7.9986,124.2928,68.92,92,100,2.73,overcast clouds
141,Te Anau,NZ,-45.4167,167.7167,34.23,89,64,0.51,broken clouds
142,Akdepe,TM,42.0551,59.3788,80.69,38,15,12.12,few clouds
143,Matamoros,MX,25.5333,-103.25,91.56,21,84,16.84,broken clouds
144,Nouadhibou,MR,20.931,-17.0347,71.58,88,17,16.11,few clouds
145,Thinadhoo,MV,0.5333,72.9333,77.29,89,100,15.26,overcast clouds
146,Sao Joao Da Barra,BR,-21.6403,-41.0511,69.89,68,61,9.95,broken clouds
147,Chokurdakh,RU,70.6333,147.9167,59.36,61,11,1.25,few clouds
148,Saldanha,ZA,-33.0117,17.9442,44.65,80,15,9.37,few clouds
149,Acapulco,MX,16.8634,-99.8901,84.18,71,99,5.17,overcast clouds
150,Arraial Do Cabo,BR,-22.9661,-42.0278,67.96,68,0,12.66,clear sky
151,Kaoma,ZM,-14.7833,24.8,54.16,39,0,3.69,clear sky
152,Lopsmarka,NO,67.3134,14.4493,60.62,79,0,5.75,clear sky
153,Faanui,PF,-16.4833,-151.75,79.09,69,1,23.47,clear sky
154,Loandjili,CG,-4.7561,11.8578,71.71,88,100,5.75,overcast clouds
155,Upernavik,GL,72.7868,-56.1549,44.74,83,100,5.75,overcast clouds
156,Garden City,US,42.3256,-83.331,85.87,43,40,5.75,scattered clouds
157,Dalvik,IS,65.9702,-18.5286,48.13,96,100,6.17,overcast clouds
158,Afyonkarahisar,TR,38.75,30.6667,69.28,43,0,4.0,clear sky
159,Jacmel,HT,18.2342,-72.5347,91.24,58,8,4.07,clear sky
160,Naze,JP,28.3667,129.4833,81.52,90,100,26.08,overcast clouds
161,Pangoa,PE,-12.1167,-73.0,76.93,69,66,1.5,broken clouds
162,Puntarenas,CR,9.9763,-84.8384,81.72,81,98,4.29,overcast clouds
163,Saskylakh,RU,71.9167,114.0833,57.49,96,100,10.16,light rain
164,Fare,PF,-16.7,-151.0167,78.67,71,1,22.39,light rain
165,Vardo,NO,70.3705,31.1107,49.98,100,100,14.97,overcast clouds
166,Marsh Harbour,BS,26.5412,-77.0636,83.66,71,67,14.63,broken clouds
167,Mehamn,NO,71.0357,27.8492,49.95,93,100,9.22,overcast clouds
168,Tonk,IN,26.1667,75.7833,83.21,64,100,12.06,overcast clouds
169,Kuybyshevo,RU,47.8123,38.9073,72.41,41,43,14.09,scattered clouds
170,Tutoia,BR,-2.7619,-42.2744,80.31,79,95,13.49,overcast clouds
171,Vanimo,PG,-2.6741,141.3028,77.92,86,28,4.81,scattered clouds
172,Vila Velha,BR,-20.3297,-40.2925,71.55,68,75,13.8,broken clouds
173,Westport,US,41.1415,-73.3579,88.95,44,10,5.99,clear sky
174,Hualmay,PE,-11.0964,-77.6139,64.54,78,21,9.95,few clouds
175,Port Elizabeth,ZA,-33.918,25.5701,53.98,74,10,14.99,clear sky
176,Kozan,TR,37.4552,35.8157,76.69,61,0,0.16,clear sky
177,Snezhnogorsk,RU,69.1933,33.2531,51.58,96,98,11.72,overcast clouds
178,Xai-Xai,MZ,-25.0519,33.6442,62.6,68,0,8.21,clear sky
179,Bengkulu,ID,-3.8004,102.2655,76.71,86,100,4.47,overcast clouds
180,Pindiga,NG,9.9833,10.9333,69.53,91,100,5.46,overcast clouds
181,Casablanca,MA,33.5928,-7.6192,79.02,78,0,5.99,clear sky
182,Cherskiy,RU,68.75,161.3,60.08,47,100,19.93,overcast clouds
183,Kodiak,US,57.79,-152.4072,55.31,95,100,7.38,light rain
184,Adre,TD,13.4667,22.2,75.6,75,93,6.55,light rain
185,Salalah,OM,17.0151,54.0924,75.45,91,68,6.51,broken clouds
186,Port Blair,IN,11.6667,92.75,81.46,83,100,8.99,overcast clouds
187,Ontario,US,34.0633,-117.6509,98.85,40,40,16.11,scattered clouds
188,Stornoway,GB,58.2093,-6.3865,52.93,84,75,2.3,broken clouds
189,Amga,RU,60.8953,131.9608,66.76,94,100,3.65,overcast clouds
190,Aitape,PG,-3.1374,142.3475,78.46,80,32,4.0,scattered clouds
191,Mao,ES,39.8885,4.2658,79.36,69,0,4.61,clear sky
192,Treuchtlingen,DE,48.95,10.9167,63.37,78,55,1.25,broken clouds
193,Nanortalik,GL,60.1432,-45.2371,44.73,90,49,7.99,scattered clouds
194,Castro,BR,-24.7911,-50.0119,50.23,64,3,3.83,clear sky
195,Coquimbo,CL,-29.9533,-71.3436,56.93,76,100,6.91,overcast clouds
196,Ostrovnoy,RU,68.0531,39.5131,57.4,91,66,7.94,broken clouds
197,Meulaboh,ID,4.1363,96.1285,75.83,91,77,3.24,broken clouds
198,Milkovo,RU,54.7167,158.6167,52.32,95,100,6.4,light rain
199,Paamiut,GL,61.994,-49.6678,42.42,95,71,11.74,broken clouds
200,Tuy Hoa,VN,13.0833,109.3,78.49,86,100,6.51,overcast clouds
201,Tarko-Sale,RU,64.9225,77.785,51.12,65,0,16.4,clear sky
202,Pandan,PH,14.0453,124.1694,80.08,84,100,7.72,overcast clouds
203,Luwingu,ZM,-10.2621,29.9271,57.56,50,4,2.53,clear sky
204,Broken Hill,AU,-31.95,141.4333,52.48,46,100,12.66,overcast clouds
205,Airai,TL,-8.9266,125.4092,58.1,94,67,3.98,broken clouds
206,Yulara,AU,-25.2406,130.9889,58.8,30,100,6.33,overcast clouds
207,Nome,US,64.5011,-165.4064,62.17,47,100,6.91,overcast clouds
208,Jinchang,CN,38.4953,102.1739,74.98,43,100,2.75,overcast clouds
209,Belaya Gora,RU,68.5333,146.4167,61.7,68,0,3.33,clear sky
210,Payo,ID,-3.7508,103.6372,72.36,94,97,1.68,overcast clouds
211,Mapastepec,MX,15.4333,-92.9,83.97,81,69,2.75,broken clouds
212,Ancud,CL,-41.8697,-73.8203,45.23,79,99,2.01,overcast clouds
213,Preston,GB,53.7667,-2.7167,65.32,98,100,3.98,light rain
214,Tebingtinggi,ID,3.3285,99.1625,74.52,95,93,2.98,overcast clouds
215,Aksha,RU,50.2814,113.2867,57.34,85,5,2.28,clear sky
216,Porto-Vecchio,FR,41.591,9.2795,78.33,73,0,3.44,clear sky
217,Beyneu,KZ,45.3167,55.2,81.77,49,31,3.31,scattered clouds
218,Rusape,ZW,-18.5278,32.1284,51.66,36,2,5.99,clear sky
219,Illapel,CL,-31.6308,-71.1653,55.2,87,97,3.78,overcast clouds
220,Lyubytino,RU,58.8122,33.3922,53.56,91,24,2.57,few clouds
221,Moron,AR,-34.6534,-58.6198,62.49,60,29,4.92,scattered clouds
222,Mahibadhoo,MV,3.7833,72.9667,78.67,83,100,20.33,overcast clouds
223,Makokou,GA,0.5738,12.8642,70.3,81,1,4.9,clear sky
224,Puerto Baquerizo Moreno,EC,-0.9,-89.6,76.19,69,75,9.22,broken clouds
225,Staryy Nadym,RU,65.6118,72.6842,47.8,76,1,11.72,clear sky
226,Okhotsk,RU,59.3833,143.3,58.75,88,99,13.73,overcast clouds
227,Bathsheba,BB,13.2167,-59.5167,83.05,90,75,19.57,broken clouds
228,Saint Anthony,US,45.0205,-93.218,89.29,45,25,4.0,scattered clouds
229,Ahipara,NZ,-35.1667,173.1667,54.0,60,64,19.33,broken clouds
230,Batsfjord,NO,70.6345,29.7185,49.93,100,100,14.97,light intensity drizzle
231,Nantucket,US,41.2835,-70.0995,84.31,70,1,20.11,clear sky
232,Geraldton,AU,-28.7667,114.6,50.41,87,40,9.22,scattered clouds
233,Miri,MY,4.4148,114.0089,75.34,94,20,3.44,few clouds
234,Lasa,IT,46.6166,10.7002,63.48,84,27,6.33,scattered clouds
235,Luderitz,NA,-26.6481,15.1594,54.16,63,57,21.77,broken clouds
236,Touros,BR,-5.1989,-35.4608,74.79,90,100,10.07,light rain
237,San Policarpo,PH,12.1791,125.5072,80.19,84,100,7.07,overcast clouds
238,Deoli,IN,25.75,75.3833,81.19,68,100,11.3,overcast clouds
239,Luwuk,ID,-0.9516,122.7875,75.27,92,94,4.07,overcast clouds
240,Pindi Gheb,PK,33.2402,72.2661,86.94,66,100,10.85,overcast clouds
241,Topolobampo,MX,25.6,-109.05,90.32,55,93,11.21,overcast clouds
242,Kimbe,PG,-5.5502,150.1429,80.11,77,58,3.89,broken clouds
243,Iracoubo,GF,5.4802,-53.2011,78.94,83,12,7.36,few clouds
244,Ilulissat,GL,69.2167,-51.1,42.57,95,100,7.54,light rain
245,Heilbron,ZA,-27.2812,27.9709,52.43,45,86,5.99,overcast clouds
246,Kundiawa,PG,-6.0167,144.9667,64.09,87,96,0.78,overcast clouds
247,College,US,64.8569,-147.8028,76.59,40,20,0.0,few clouds
248,Bage,BR,-31.3314,-54.1069,56.98,67,0,4.61,clear sky
249,Sale,MA,34.0389,-6.8166,75.88,78,0,4.61,clear sky
250,Fairbanks,US,64.8378,-147.7164,76.6,39,20,3.44,few clouds
251,Galveston,US,29.3669,-94.9669,95.09,67,100,5.01,overcast clouds
252,Hovd,MN,48.0056,91.6419,65.55,39,80,5.44,broken clouds
253,Morant Bay,JM,17.8815,-76.4093,90.72,71,9,10.8,clear sky
254,Lorengau,PG,-2.0226,147.2712,82.38,70,81,6.58,broken clouds
255,Ugoofaaru,MV,5.6667,73.0,78.58,85,100,19.08,light rain
256,Dutlwe,BW,-23.9833,23.9,56.98,29,79,9.48,broken clouds
257,Duliagaon,IN,27.3667,95.3167,75.27,98,99,3.22,overcast clouds
258,Palmer,US,42.1584,-72.3287,83.77,48,5,3.0,clear sky
259,Singapore,SG,1.2897,103.8501,82.35,83,75,10.36,broken clouds
260,Gamba,GA,-2.65,10.0,69.66,92,16,3.87,few clouds
261,Cap Malheureux,MU,-19.9842,57.6142,70.47,61,41,8.99,scattered clouds
262,Pizarro,CO,4.9533,-77.366,79.86,85,100,8.95,light rain
263,Den Helder,NL,52.9599,4.7593,69.03,71,100,8.05,overcast clouds
264,Lerwick,GB,60.1545,-1.1494,53.6,76,27,13.82,scattered clouds
265,Mangan,IN,27.5167,88.5333,75.69,94,100,1.54,overcast clouds
266,Brownsville,US,25.9018,-97.4975,96.75,52,0,14.97,clear sky
267,Laguna,US,38.421,-121.4238,97.09,42,0,9.22,clear sky
268,Totma,RU,59.9747,42.7642,52.65,96,5,3.06,clear sky
269,Byron Bay,AU,-28.65,153.6167,51.94,70,100,1.68,overcast clouds
270,Rio Grande,BR,-32.035,-52.0986,55.51,72,0,5.23,clear sky
271,Palu,ID,-0.8917,119.8707,75.6,95,100,1.99,moderate rain
272,Victoria,HK,22.2855,114.1577,85.32,88,40,3.0,scattered clouds
273,Vangaindrano,MG,-23.35,47.6,64.08,94,16,4.03,few clouds
274,Lac Du Bonnet,CA,50.2536,-96.0612,83.82,43,24,8.37,few clouds
275,Quatre Cocos,MU,-20.2078,57.7625,70.09,72,50,17.67,scattered clouds
276,Suntar,RU,62.1444,117.6319,64.45,86,27,2.24,scattered clouds
277,Elat,IL,29.5581,34.9482,91.24,27,0,16.11,clear sky
278,Ixtapa,MX,20.7,-105.2,90.23,52,98,7.0,overcast clouds
279,Karauli,IN,26.5,77.0167,84.88,69,100,8.37,overcast clouds
280,Awjilah,LY,29.1081,21.2869,83.34,48,0,15.73,clear sky
281,Labuhan,ID,-6.8844,112.2051,74.21,86,52,8.57,broken clouds
282,Hwange,ZW,-18.3693,26.5019,58.86,38,0,1.28,clear sky
283,Port Hedland,AU,-20.3167,118.5667,62.65,59,23,6.91,few clouds
284,Ust-Omchug,RU,61.15,149.6333,52.29,80,100,5.57,light rain
285,Dire,ML,12.2833,-10.9667,73.76,92,82,1.19,broken clouds
286,Georgetown,MY,5.4112,100.3354,80.53,92,20,2.3,few clouds
287,Inhambane,MZ,-23.865,35.3833,66.07,78,1,7.67,clear sky
288,Arona,ES,28.0996,-16.681,77.9,63,0,9.22,clear sky
289,Sovetskaya Gavan,RU,48.9723,140.2878,61.34,95,91,8.05,overcast clouds
290,Papar,MY,5.7333,115.9333,77.0,84,99,3.47,overcast clouds
291,Tessalit,ML,20.1986,1.0114,87.22,37,62,8.84,light rain
292,Codrington,AU,-38.2667,141.9667,52.41,54,100,20.74,overcast clouds
293,Launceston,AU,-41.45,147.1667,48.79,82,40,10.36,light rain
294,Arbazh,RU,57.6804,48.3065,61.3,92,99,1.81,overcast clouds
295,Otofuke,JP,42.9917,143.2003,74.88,82,28,8.97,scattered clouds
296,Biltine,TD,14.5333,20.9167,82.96,58,98,2.13,light rain
297,Mayo,US,38.8876,-76.5119,90.95,52,95,4.0,overcast clouds
298,Sorong,ID,-0.8833,131.25,77.14,89,95,8.12,overcast clouds
299,Chkalovsk,RU,56.7647,43.2433,59.79,68,3,7.65,clear sky
300,Nalut,LY,30.3333,10.85,85.24,17,0,9.46,clear sky
301,Kichera,RU,55.9375,110.0997,55.58,95,100,1.79,overcast clouds
302,Mochalishche,RU,56.3306,48.3547,60.89,84,49,1.39,scattered clouds
303,Kapan,AM,39.2075,46.4058,70.36,70,82,2.17,broken clouds
304,Irbeyskoye,RU,55.6428,95.4522,60.58,96,92,8.23,overcast clouds
305,Ulcinj,ME,41.9294,19.2244,80.82,76,13,7.96,few clouds
306,Jizan,SA,17.3333,42.6667,90.54,58,73,1.59,broken clouds
307,Chantada,ES,42.6088,-7.7712,64.54,97,2,5.14,clear sky
308,Berlevag,NO,70.8578,29.0864,50.0,93,100,17.27,overcast clouds
309,Isangel,VU,-19.55,169.2667,73.51,88,100,2.3,overcast clouds
310,Kailua,US,21.4022,-157.7394,86.14,74,8,5.99,clear sky
311,Shimoda,JP,34.6667,138.95,85.1,83,4,11.63,clear sky
312,Tilichiki,RU,60.4667,166.1,50.29,91,100,6.49,light rain
313,Sungaipenuh,ID,-2.0833,101.3833,63.59,88,99,1.61,overcast clouds
314,Eenhana,NA,-17.4667,16.3333,60.1,28,2,4.74,clear sky
315,Amberley,US,39.2048,-84.428,84.11,47,97,3.0,overcast clouds
316,Varhaug,NO,58.6147,5.6457,60.78,83,100,12.88,overcast clouds
317,Gumdag,TM,39.2061,54.5906,81.37,56,0,9.44,clear sky
318,Leh,IN,34.1667,77.5833,62.71,56,42,6.6,scattered clouds
319,Brookings,US,44.3114,-96.7984,84.54,19,0,15.73,clear sky
320,San Quintin,MX,30.4833,-115.95,74.3,61,10,8.97,clear sky
321,Vaike-Maarja,EE,59.1264,26.25,51.1,96,18,5.39,few clouds
322,Abadan,IR,30.3392,48.3043,89.55,62,40,4.61,dust
323,Golden,US,39.7555,-105.2211,92.98,21,40,9.22,scattered clouds
324,Alipur Chatha,PK,32.2688,73.819,79.59,89,85,6.24,overcast clouds
325,Bonthe,SL,7.5264,-12.505,75.85,76,79,6.96,broken clouds
326,Sinnamary,GF,5.3833,-52.95,79.23,82,19,7.25,few clouds
327,Petukhovo,RU,55.0692,67.9019,59.16,91,62,7.7,broken clouds
328,Mitsamiouli,KM,-11.3847,43.2844,75.42,76,0,5.7,clear sky
329,Ketchikan,US,55.3422,-131.6461,67.8,82,95,2.98,overcast clouds
330,Torbay,CA,47.6666,-52.7314,70.57,90,100,12.66,overcast clouds
331,Kavieng,PG,-2.5744,150.7967,83.08,72,93,14.45,overcast clouds
332,Opotiki,NZ,-38.0833,177.2833,52.39,75,61,10.47,broken clouds
333,Jacareacanga,BR,-6.2222,-57.7528,85.1,41,89,1.07,overcast clouds
334,Mbuji-Mayi,CD,-6.15,23.6,76.37,48,35,1.83,scattered clouds
335,Limbang,MY,4.75,115.0,78.06,93,100,2.06,overcast clouds
336,Clyde River,CA,70.4692,-68.5914,39.43,100,100,12.66,light rain
337,Turukhansk,RU,65.8167,87.9833,49.37,72,69,16.6,broken clouds
338,Flinders,AU,-34.5833,150.8552,53.38,70,87,6.85,overcast clouds
339,Avera,US,33.194,-82.5271,76.51,53,99,7.09,overcast clouds
340,Kargasok,RU,59.0556,80.8572,62.35,87,100,7.14,overcast clouds
341,Veracruz,MX,19.3333,-96.6667,79.75,76,53,6.2,broken clouds
342,Ayagoz,KZ,47.9714,80.4392,62.47,40,26,7.18,scattered clouds
343,Bardiyah,LY,31.7561,25.0865,78.15,75,0,16.69,clear sky
344,Chuy,UY,-33.6971,-53.4616,50.25,77,1,3.58,clear sky
345,Basco,PH,20.4487,121.9702,85.12,77,100,20.6,overcast clouds
346,Boueni,YT,-12.9025,45.0761,73.38,76,3,9.26,clear sky
347,Kaitangata,NZ,-46.2817,169.8464,41.13,87,87,12.03,overcast clouds
348,Camacupa,AO,-12.0167,17.4833,61.79,28,1,3.89,clear sky
349,Hanko,FI,59.8333,22.95,55.15,65,10,9.89,clear sky
350,Hambantota,LK,6.1241,81.1185,77.34,100,20,4.61,few clouds
351,Myanaung,MM,18.2833,95.3167,79.81,84,100,1.97,overcast clouds
352,Kutum,SD,14.2,24.6667,76.48,64,89,8.39,moderate rain
353,Moundou,TD,8.5667,16.0833,71.13,97,100,3.91,light rain
354,Tabas,IR,33.5959,56.9244,90.28,27,9,4.52,clear sky
355,Bergama,TR,39.1207,27.1805,71.67,74,0,7.76,clear sky
356,Bambous Virieux,MU,-20.3428,57.7575,70.21,68,40,18.41,scattered clouds
357,Bilibino,RU,68.0546,166.4372,56.41,52,99,9.17,overcast clouds
358,Alofi,NU,-19.0595,-169.9187,75.09,94,3,11.5,clear sky
359,Najran,SA,17.4924,44.1277,86.65,33,99,1.5,light rain
360,Ginir,ET,7.1333,40.7,59.54,73,47,8.21,scattered clouds
361,Lumphat,KH,13.4878,106.9816,74.89,97,100,1.45,overcast clouds
362,Kruisfontein,ZA,-34.0033,24.7314,49.77,76,3,12.97,clear sky
363,Port Lincoln,AU,-34.7333,135.8667,53.01,75,48,19.08,scattered clouds
364,Celestun,MX,20.8667,-90.4,81.81,75,83,8.86,broken clouds
365,Talnakh,RU,69.4865,88.3972,47.21,76,78,16.64,broken clouds
366,Comodoro Rivadavia,AR,-45.8667,-67.5,48.06,43,0,9.22,clear sky
367,Norman Wells,CA,65.282,-126.8329,66.24,52,75,10.36,broken clouds
368,Oistins,BB,13.0667,-59.5333,82.51,89,75,19.57,broken clouds
369,Nioro,GM,13.35,-15.75,75.97,91,100,7.74,overcast clouds
370,Port Macquarie,AU,-31.4333,152.9167,43.9,81,86,6.17,overcast clouds
371,Sabang,ID,5.8933,95.3214,82.24,75,99,19.66,overcast clouds
372,Maningrida,AU,-12.0667,134.2667,65.32,87,82,7.72,broken clouds
373,Hay River,CA,60.8156,-115.7999,66.18,42,13,5.75,few clouds
374,Leczyca,PL,52.0596,19.1997,62.08,98,100,13.15,light rain
375,Saint-Augustin,CA,51.226,-58.6502,68.54,68,84,14.65,broken clouds
376,Pitimbu,BR,-7.4706,-34.8086,73.99,93,100,9.98,moderate rain
377,Sayyan,YE,15.1718,44.3244,64.53,61,92,3.29,overcast clouds
378,Scarborough,GB,54.2797,-0.4044,64.33,89,100,4.0,overcast clouds
379,Fuerte Olimpo,PY,-21.0415,-57.8738,70.2,39,0,1.39,clear sky
380,Neuquen,AR,-38.9516,-68.0591,55.29,38,0,6.91,clear sky
381,Ibra,OM,22.6906,58.5334,81.34,64,72,5.86,broken clouds
382,Inuvik,CA,68.3499,-133.7218,49.06,71,100,3.44,overcast clouds
383,La Asuncion,VE,11.0333,-63.8628,89.33,58,6,12.66,clear sky
384,Katsuura,JP,35.1333,140.3,81.9,83,87,13.51,overcast clouds
385,Olafsvik,IS,64.8945,-23.7142,49.53,68,4,10.0,clear sky
386,Karratha,AU,-20.7377,116.8463,68.97,56,31,3.24,scattered clouds
387,Ambanja,MG,-13.6833,48.45,69.21,90,49,2.68,scattered clouds
388,Henties Bay,NA,-22.116,14.2845,53.42,93,52,9.1,broken clouds
389,Malangwa,NP,26.8568,85.5581,79.66,89,100,3.94,overcast clouds
390,Hofn,IS,64.2539,-15.2082,51.15,62,99,6.44,overcast clouds
391,Surt,LY,31.2089,16.5887,80.8,74,0,7.52,clear sky
392,Kholm-Zhirkovskiy,RU,55.5189,33.4731,52.0,81,9,3.31,clear sky
393,Necochea,AR,-38.5473,-58.7368,50.85,74,100,7.87,overcast clouds
394,Show Low,US,34.2542,-110.0298,73.69,58,0,8.05,clear sky
395,Kavaratti,IN,10.5669,72.642,80.91,83,93,18.88,overcast clouds
396,Vao,NC,-22.6667,167.4833,67.91,78,100,27.04,overcast clouds
397,Kloulklubed,PW,7.0419,134.2556,83.8,75,100,12.19,overcast clouds
398,Port Hardy,CA,50.6996,-127.4199,71.78,73,20,12.66,fog
399,Guarapari,BR,-20.6667,-40.4975,68.9,72,100,8.79,overcast clouds
400,Chernyakhovsk,RU,54.6335,21.8156,57.6,79,96,8.68,overcast clouds
401,North Platte,US,41.1239,-100.7654,85.32,46,0,11.01,clear sky
402,Pryazha,RU,61.6926,33.6216,52.83,98,100,5.99,overcast clouds
403,Merauke,ID,-8.4667,140.3333,77.29,85,100,15.32,overcast clouds
404,Manhattan,US,40.7834,-73.9662,89.96,39,27,8.01,scattered clouds
405,Waipawa,NZ,-41.4122,175.5153,40.91,89,100,22.12,light rain
406,Faya,SA,18.3851,42.4509,69.91,53,44,3.44,scattered clouds
407,Benguela,AO,-12.5763,13.4055,66.58,88,12,4.03,few clouds
408,West Wendover,US,40.7391,-114.0733,94.68,14,0,8.68,clear sky
409,Vysha,RU,53.8477,42.3777,60.96,66,96,4.63,overcast clouds
410,Sandakan,MY,5.8402,118.1179,76.68,94,20,0.0,few clouds
411,Jati,PK,24.3539,68.2671,80.78,80,54,18.25,broken clouds
412,Porto Nacional,BR,-10.7081,-48.4172,93.2,28,5,1.48,clear sky
413,Saint George,US,37.1041,-113.5841,96.26,33,0,5.99,clear sky
414,Arica,CL,-18.475,-70.3042,60.4,79,13,3.76,few clouds
415,Shiyan,CN,32.6475,110.7781,71.65,83,1,1.03,clear sky
416,Great Bend,US,38.3645,-98.7648,81.54,50,71,7.27,broken clouds
417,Pailitas,CO,8.9565,-73.6255,91.15,57,27,2.55,scattered clouds
418,Tazmalt,DZ,36.3868,4.3989,82.4,47,2,3.44,clear sky
419,Forestville,US,38.8451,-76.875,89.64,44,40,5.75,scattered clouds
420,Longyearbyen,SJ,78.2186,15.6401,49.84,81,75,10.36,broken clouds
421,Shiraz,IR,29.6036,52.5388,74.68,69,99,4.79,overcast clouds
422,Korla,CN,41.7597,86.1469,74.59,41,6,6.93,clear sky
423,Stavanger,NO,58.9701,5.7333,61.14,85,100,9.22,light intensity drizzle
424,Mafeteng,LS,-29.823,27.2374,40.93,43,16,1.39,few clouds
425,Honningsvag,NO,70.9821,25.9704,51.55,76,100,11.5,overcast clouds
426,Birao,CF,10.2849,22.7882,71.92,92,25,4.18,scattered clouds
427,Santa Cruz,BO,-17.8,-63.1667,75.04,35,2,9.35,clear sky
428,Egvekinot,RU,66.3167,-179.1667,52.27,49,71,3.56,broken clouds
429,Alta Floresta,BR,-9.8756,-56.0861,80.46,29,3,3.22,clear sky
430,Meadow Lake,US,34.8014,-106.5436,87.15,41,42,6.11,light rain
431,Conde,BR,-7.2597,-34.9075,72.23,95,100,8.3,moderate rain
432,Antofagasta,CL,-23.65,-70.4,57.4,80,10,6.53,clear sky
433,Mchinji,MW,-13.7984,32.8802,57.29,51,6,2.35,clear sky
434,Santa Isabel Do Rio Negro,BR,-0.4139,-65.0192,75.47,94,88,1.99,moderate rain
435,Uige,AO,-7.6087,15.0613,63.77,72,0,2.86,clear sky
436,Busayra,JO,30.7376,35.6078,70.77,49,64,5.55,broken clouds
437,Roald,NO,62.5833,6.1333,61.9,94,75,3.44,light rain
438,Ust-Kuyga,RU,70.0167,135.6,62.73,50,98,2.75,overcast clouds
439,Ipixuna,BR,-1.7625,-48.8043,74.59,96,98,2.71,moderate rain
440,Jurm,AF,36.8648,70.8342,65.57,44,22,2.3,few clouds
441,Sawtell,AU,-30.3833,153.1,51.19,93,100,0.0,overcast clouds
442,Pueblo,US,38.2545,-104.6091,92.41,29,30,1.99,scattered clouds
443,Techiman,GH,7.5862,-1.9414,70.75,88,95,5.86,overcast clouds
444,Pareora,NZ,-44.4871,171.2132,44.19,74,97,9.4,overcast clouds
445,Artigas,UY,-30.4,-56.4667,51.85,75,1,4.94,clear sky
446,Boa Vista,BR,2.8197,-60.6733,78.78,83,20,1.14,few clouds
447,Lichuan,CN,30.3,108.85,63.39,95,0,2.1,clear sky
448,Kurilsk,RU,45.2333,147.8833,64.47,93,93,12.53,overcast clouds
449,High Rock,BS,26.6208,-78.2833,84.58,70,2,14.12,clear sky
450,Barguzin,RU,53.6167,109.6167,59.92,91,100,3.02,overcast clouds
451,Revda,RU,56.801,59.9303,63.77,68,100,2.19,overcast clouds
452,Rafraf,TN,37.1904,10.1837,82.71,74,0,17.49,clear sky
453,Narsaq,GL,60.9167,-46.05,57.42,85,10,7.67,clear sky
454,Nemuro,JP,43.3236,145.575,67.57,90,15,10.67,few clouds
455,Sakaiminato,JP,35.55,133.2333,82.33,80,80,6.15,broken clouds
456,Krivyanskaya,RU,47.3963,40.1662,79.93,44,22,11.77,few clouds
457,Gebre Guracha,ET,9.8,38.4,52.79,85,25,2.26,light rain
458,Sweetwater,US,25.7634,-80.3731,90.01,68,75,14.97,broken clouds
459,Lashio,MM,22.9333,97.75,67.55,99,100,1.07,overcast clouds
460,Aras,ES,42.5617,-2.356,68.41,60,0,5.75,clear sky
461,Joshimath,IN,30.5667,79.5667,69.84,92,95,1.23,overcast clouds
462,Axim,GH,4.8699,-2.2405,74.68,83,65,10.87,broken clouds
463,Laurel,US,39.0993,-76.8483,89.78,49,40,5.75,scattered clouds
464,Otane,NZ,-39.8833,176.6333,55.0,71,25,14.74,scattered clouds
465,Gawler,AU,-34.6,138.7333,54.21,70,100,15.1,moderate rain
466,Coulommiers,FR,48.8145,3.085,74.86,62,74,8.5,broken clouds
467,Terre Haute,US,39.4667,-87.4139,83.23,52,0,1.01,clear sky
468,Cabo San Lucas,MX,22.8909,-109.9124,91.18,57,57,6.6,broken clouds
469,Labrea,BR,-7.2586,-64.7981,85.73,44,36,0.56,scattered clouds
470,Sanchez,DO,19.2281,-69.6137,80.51,86,100,8.9,overcast clouds
471,Lata,PT,40.1629,-8.3327,69.75,61,0,0.89,clear sky
472,Namibe,AO,-15.1961,12.1522,61.74,88,77,4.23,broken clouds
473,Uray,RU,60.1247,64.7758,61.14,90,88,6.53,light rain
474,Istiaia,GR,38.9558,23.1528,79.54,46,0,2.01,clear sky
475,Chivacoa,VE,10.1603,-68.895,80.94,73,53,2.75,broken clouds
476,Sal Rei,CV,16.1833,-22.9167,77.54,75,100,9.73,overcast clouds
477,Beringovskiy,RU,63.05,179.3167,52.09,69,100,1.3,overcast clouds
478,Chapais,CA,49.7834,-74.8492,66.15,69,97,8.48,overcast clouds
479,Itarema,BR,-2.9248,-39.9167,78.8,79,82,13.58,broken clouds
480,San-Pedro,CI,4.7485,-6.6363,74.8,81,60,7.99,broken clouds
481,Kysyl-Syr,RU,63.8986,122.7617,67.21,86,33,5.23,scattered clouds
482,Omsukchan,RU,62.5333,155.8,52.63,67,84,8.7,broken clouds
483,Nueva Gerona,CU,21.8833,-82.8,85.39,66,59,10.65,broken clouds
484,Hinton,CA,53.4001,-117.5857,76.78,53,67,8.28,broken clouds
485,Omboue,GA,-1.5746,9.2618,71.8,87,76,4.79,broken clouds
486,Motril,ES,36.7507,-3.5179,88.27,86,59,2.77,broken clouds
487,Sibolga,ID,1.7427,98.7792,76.3,83,97,2.28,overcast clouds
488,San Andres,CO,12.5847,-81.7006,82.56,81,55,17.78,broken clouds
489,Oranjemund,NA,-28.55,16.4333,52.18,85,5,12.86,clear sky
490,Bagdarin,RU,54.4333,113.6,53.74,98,72,1.5,broken clouds
491,Smiltene,LV,57.4244,25.9016,51.55,86,6,4.07,clear sky
492,Samfya,ZM,-11.3649,29.5565,60.98,47,3,5.73,clear sky
493,Sorland,NO,67.667,12.6934,57.06,75,7,12.19,clear sky
494,Thunder Bay,CA,48.4001,-89.3168,77.18,45,7,9.04,clear sky
495,Zherdevka,RU,51.8486,41.4606,63.7,65,100,8.23,overcast clouds
496,Nelson Bay,AU,-32.7167,152.15,52.0,95,96,4.0,overcast clouds
497,Anchorage,US,61.2181,-149.9003,62.08,87,100,5.99,overcast clouds
498,Goderich,CA,43.7501,-81.7165,73.9,64,6,6.78,clear sky
499,Soverato,IT,38.685,16.5499,82.35,86,3,12.71,clear sky
500,Warrnambool,AU,-38.3833,142.4833,52.29,55,100,21.05,overcast clouds
501,Sur,OM,22.5667,59.5289,84.78,68,51,8.72,broken clouds
502,Conceicao Das Alagoas,BR,-19.9147,-48.3883,72.28,37,0,3.96,clear sky
503,Kozhva,RU,65.1073,57.0459,57.67,79,57,4.85,broken clouds
504,Pleasanton,US,37.6624,-121.8747,87.94,51,0,17.27,clear sky
505,Pisco,PE,-13.7,-76.2167,64.45,72,0,6.91,clear sky
506,Sisimiut,GL,66.9395,-53.6735,48.11,79,100,5.99,overcast clouds
507,Praya,CV,14.9215,-23.5087,78.71,77,96,8.61,overcast clouds
508,Samoded,RU,63.6083,40.5111,53.8,97,4,4.68,clear sky
509,Zyryanka,RU,65.75,150.85,67.42,36,2,17.67,clear sky
510,Seguela,CI,7.9611,-6.6731,73.15,83,77,3.44,broken clouds
511,Muli,MV,2.9167,73.5667,77.5,88,100,16.2,overcast clouds
512,Ak-Dovurak,RU,51.1833,90.6,60.03,71,91,1.28,overcast clouds
513,Phek,IN,25.6667,94.5,61.07,99,100,0.89,overcast clouds
514,Odda,NO,60.0691,6.5457,59.2,85,97,5.79,overcast clouds
515,Taunggyi,MM,20.7833,97.0333,63.54,93,100,2.84,overcast clouds
516,Dryden,CA,49.7833,-92.7503,83.5,34,4,9.95,clear sky
517,Padang,ID,-0.9492,100.3543,75.92,86,85,3.69,overcast clouds
518,Tuatapere,NZ,-46.1333,167.6833,40.15,88,94,5.17,light rain
519,Pochutla,MX,15.7432,-96.4661,82.81,70,84,4.81,broken clouds
520,Filadelfia,US,39.9523,-75.1638,90.01,40,79,5.01,broken clouds
521,Taungdwingyi,MM,20.0167,95.55,78.3,85,100,7.38,overcast clouds
522,Rosetta,EG,31.4044,30.4164,78.49,72,0,11.88,clear sky
523,Jumla,NP,29.2747,82.1838,62.01,95,100,1.07,overcast clouds
524,Kita,ML,13.0349,-9.4895,73.74,91,66,2.21,broken clouds
525,Barra Patuca,HN,15.8,-84.2833,81.05,83,97,11.48,overcast clouds
526,Tiznit,MA,29.5833,-9.5,88.66,21,0,2.1,clear sky
527,Coihaique,CL,-45.5752,-72.0662,35.71,91,100,5.46,overcast clouds
528,Katsina,NG,12.9894,7.6006,73.81,77,100,12.5,overcast clouds
529,Brazzaville,CG,-4.2658,15.2832,80.94,45,31,10.02,scattered clouds
530,Mananjary,MG,-21.2167,48.3333,65.19,92,11,4.43,few clouds
531,Constantine,DZ,36.365,6.6147,80.01,44,0,2.3,clear sky
532,Kijang,KR,35.2442,129.2139,77.63,95,100,1.39,overcast clouds
533,Hauterive,FR,46.0901,3.4459,68.76,51,4,2.08,clear sky
534,Levokumka,RU,44.2317,43.15,77.25,47,28,8.95,scattered clouds
535,Maoming,CN,21.65,110.9,78.98,86,95,1.83,overcast clouds
536,Kieta,PG,-6.2167,155.6333,81.19,77,60,7.47,light rain
537,Belmonte,BR,-15.8631,-38.8828,74.5,91,0,10.58,clear sky
538,Yerbogachen,RU,61.2767,108.0108,60.1,90,89,0.94,overcast clouds
539,San Patricio,US,28.017,-97.5169,97.52,42,82,17.09,broken clouds
540,Sao Miguel Do Araguaia,BR,-13.275,-50.1628,78.8,21,3,1.63,clear sky
541,Abu Kamal,SY,34.4506,40.9171,92.57,13,3,1.74,clear sky
542,Arman,RU,59.7,150.1667,59.02,92,89,6.91,light rain
543,Pathardi,IN,19.1667,75.1833,76.17,86,98,6.15,overcast clouds
544,Matay,EG,28.419,30.7792,84.88,27,2,13.06,clear sky
545,Surgut,RU,61.25,73.4167,69.98,73,0,11.18,clear sky
546,Praia Da Vitoria,PT,38.7333,-27.0667,74.75,78,21,3.91,few clouds
547,Susurluk,TR,39.9136,28.1578,73.89,91,0,2.55,clear sky
548,Taltal,CL,-25.4,-70.4833,57.78,79,90,4.56,overcast clouds
549,Saint-Pierre,RE,-21.3393,55.4781,71.19,74,20,4.61,few clouds
550,Bairiki,KI,1.3292,172.9752,84.2,70,20,11.5,few clouds
551,Beian,NO,63.6559,9.5683,57.0,94,0,5.75,clear sky
552,San Cristobal,VE,7.7669,-72.225,78.24,60,76,5.14,broken clouds
553,Atbasar,KZ,51.8,68.3333,63.03,72,100,8.46,overcast clouds
554,Kuandian,CN,40.7286,124.7847,73.33,92,38,2.68,scattered clouds
555,Tyukhtet,RU,56.5389,89.3011,58.95,96,88,4.61,overcast clouds
556,Trapani,IT,37.8333,12.6667,78.89,68,0,5.55,clear sky
557,Pucallpa,PE,-8.3791,-74.5539,89.64,55,20,4.61,few clouds
558,Isla Mujeres,MX,21.2311,-86.731,78.85,77,99,8.66,overcast clouds
559,Charagua,BO,-19.8,-63.2167,71.17,37,0,4.76,clear sky
560,Kargil,IN,34.5667,76.1,56.61,67,40,7.2,scattered clouds
561,Wanning,CN,18.8003,110.3967,79.83,87,21,6.49,few clouds
562,Serafimovich,RU,49.5786,42.736,64.62,64,96,5.88,overcast clouds
563,Ranau,MY,5.9538,116.6641,69.33,94,100,1.5,overcast clouds
564,Sangar,RU,63.9242,127.4739,67.5,84,16,3.89,few clouds
565,Angol,CL,-37.8,-72.7167,47.95,92,100,2.17,overcast clouds
566,Vestmannaeyjar,IS,63.4427,-20.2734,50.79,78,73,16.84,broken clouds
567,Cockburn Town,TC,21.4612,-71.1419,85.96,66,40,16.11,scattered clouds
568,Gogapur,IN,23.55,75.5167,75.24,83,80,9.93,broken clouds
569,Zile,TR,40.3031,35.8864,59.97,63,0,1.99,clear sky
570,Rundu,NA,-17.9333,19.7667,60.24,27,6,4.65,clear sky
571,Biloela,AU,-24.4167,150.5,56.88,67,86,6.13,overcast clouds
572,Aquiraz,BR,-3.9014,-38.3911,79.18,84,44,8.16,scattered clouds
573,Maiduguri,NG,11.8464,13.1603,72.43,84,100,7.27,overcast clouds
574,Qasigiannguit,GL,68.8193,-51.1922,48.45,92,100,6.67,light rain
575,Baijiantan,CN,45.6333,85.1833,80.19,33,64,10.76,broken clouds
576,Lithgow,AU,-33.4833,150.15,39.45,77,100,3.6,overcast clouds
577,Batouri,CM,4.4333,14.3667,66.31,97,70,3.2,broken clouds
578,Yangcun,CN,39.3639,117.0603,76.98,91,16,2.01,few clouds
579,Kerrville,US,30.0474,-99.1403,99.48,31,0,12.66,clear sky
580,Camopi,GF,3.1655,-52.3158,73.4,98,73,2.86,broken clouds
581,Alekseyevsk,RU,57.8406,108.3492,59.58,94,84,2.86,broken clouds
582,Neryungri,RU,56.6709,124.6491,63.64,74,11,5.17,few clouds
583,Fort Nelson,CA,58.8053,-122.7002,69.24,55,100,3.96,overcast clouds
584,Maceio,BR,-9.6658,-35.7353,76.44,94,75,4.61,broken clouds
585,Shingu,JP,33.7333,135.9833,81.03,76,98,2.28,overcast clouds
586,Gustavo Diaz Ordaz,MX,26.2333,-98.5833,100.29,39,18,21.43,few clouds
587,Micheldorf,AT,46.9222,14.4405,59.13,87,16,4.18,few clouds
588,Mahajanga,MG,-15.7167,46.3167,72.66,65,23,8.81,few clouds
589,Rodrigues Alves,BR,-7.738,-72.6509,82.78,60,63,3.29,broken clouds
590,Rawson,AR,-43.3002,-65.1023,47.93,53,2,5.41,clear sky
591,Zhigansk,RU,66.7697,123.3711,65.5,83,94,11.39,overcast clouds
592,Ballina,AU,-28.8667,153.5667,52.02,99,100,3.51,overcast clouds
593,Wewak,PG,-3.5534,143.6268,79.11,84,88,5.21,overcast clouds
594,Macon,US,39.8667,-88.9668,82.15,58,52,5.61,broken clouds
595,Ahuimanu,US,21.4447,-157.8378,89.31,68,75,12.66,broken clouds
596,Souillac,MU,-20.5167,57.5167,68.38,73,40,16.11,scattered clouds
597,Los Rastrojos,VE,10.0259,-69.2417,81.95,62,9,8.55,clear sky
598,Rockingham,US,42.9668,-71.0995,84.06,52,12,1.99,few clouds
599,Chenzhou,CN,25.8,113.0333,74.62,78,45,2.68,scattered clouds
600,Kirakira,SB,-10.4544,161.9205,82.17,74,14,6.98,few clouds
601,Shelburne,CA,44.0787,-80.2041,74.3,63,4,10.31,clear sky
602,Zhicheng,CN,30.2956,111.5047,75.25,85,0,2.44,clear sky
603,Batagay-Alyta,RU,67.8006,130.4114,64.94,80,99,2.98,overcast clouds
604,Havoysund,NO,70.9963,24.6622,50.23,83,100,19.84,overcast clouds
605,Klyuchi,RU,52.2667,79.1667,64.56,86,100,6.46,overcast clouds
606,Tual,ID,-5.6667,132.75,79.11,87,62,19.44,broken clouds
607,Salaspils,LV,56.8601,24.3654,56.84,84,64,0.78,broken clouds
608,Numaran,MX,20.25,-101.9333,75.45,56,100,1.68,overcast clouds
609,Ponerihouen,NC,-21.0833,165.4,69.12,80,87,10.02,overcast clouds
610,Malakal,SS,9.5334,31.6605,72.19,94,100,4.27,light rain
611,Diego De Almagro,CL,-26.3667,-70.05,63.82,39,12,5.99,few clouds
612,Saint-Georges,GD,12.0564,-61.7485,83.88,74,20,17.27,few clouds
613,Amazar,RU,53.858,120.875,61.61,98,100,2.71,light rain
614,Walvis Bay,NA,-22.9575,14.5053,53.1,86,29,14.25,scattered clouds
615,Muisne,EC,0.6,-80.0333,75.83,83,95,10.2,overcast clouds
616,Yukamenskoye,RU,57.8865,52.2416,60.22,75,31,1.05,scattered clouds
617,Belyy Yar,RU,53.6039,91.3903,62.49,88,0,6.71,light rain
618,Kadoma,JP,34.7333,135.5833,85.64,60,90,3.09,overcast clouds
619,Svetlaya,RU,46.5389,138.3297,74.21,76,10,7.4,clear sky
620,Barao De Melgaco,BR,-16.1944,-55.9675,77.36,38,2,3.85,clear sky
621,Xianshuigu,CN,38.985,117.3828,77.0,94,0,2.24,mist
622,Kaili,ID,-3.4626,120.2147,67.41,93,100,1.52,overcast clouds
623,Beisfjord,NO,68.3751,17.5988,62.04,64,56,5.79,broken clouds
624,Ko Samui,TH,9.5357,99.9357,83.86,75,100,16.75,overcast clouds
625,Komsomolskiy,UZ,40.4272,71.7189,78.1,44,100,1.25,overcast clouds
626,Gizo,SB,-8.103,156.8419,82.44,73,90,9.98,overcast clouds
627,Trelew,AR,-43.249,-65.3051,47.48,49,3,5.26,clear sky
628,Yuxia,CN,34.0615,108.6291,75.47,79,5,2.93,clear sky
629,Newcastle,AU,-32.9272,151.7765,46.81,95,99,3.0,overcast clouds
630,Portland,US,45.5234,-122.6762,103.55,36,40,5.75,scattered clouds
631,Buturlino,RU,55.5667,44.8974,58.08,65,66,5.08,broken clouds
632,Toro,CO,4.6117,-76.0814,74.86,85,99,5.3,overcast clouds
633,Tostedt,DE,53.2833,9.7167,65.14,79,100,5.14,overcast clouds
634,Boyolangu,ID,-8.1181,111.8935,73.18,93,97,4.65,overcast clouds
635,Kvarkeno,RU,52.0833,59.725,63.99,75,100,6.29,overcast clouds
636,Valley City,US,46.9233,-98.0032,84.72,61,75,12.66,broken clouds
637,Puerto Cabezas,NI,14.0351,-83.3888,80.01,85,100,11.86,overcast clouds
638,Cansancao,BR,-10.6672,-39.4992,75.42,52,3,6.04,clear sky
639,Vesele,UA,47.0148,34.915,70.9,42,7,11.43,clear sky
640,Inongo,CD,-1.95,18.2667,73.29,63,78,2.84,broken clouds
641,Osakarovka,KZ,50.565,72.5692,58.75,97,98,5.59,overcast clouds
642,Anadyr,RU,64.75,177.4833,55.0,62,100,2.33,overcast clouds
643,Mamallapuram,IN,12.6264,80.1722,84.06,77,59,9.78,broken clouds
644,Thanh Hoa,VN,19.8,105.7667,79.93,92,100,2.26,overcast clouds
645,Muzhi,RU,65.3667,64.6667,48.42,79,10,7.18,clear sky
646,Honiara,SB,-9.4333,159.95,83.08,69,7,5.08,clear sky
647,Kochevo,RU,59.5994,54.3125,58.17,82,14,1.23,few clouds
648,Atambua,ID,-9.1061,124.8925,70.81,89,46,4.43,scattered clouds
649,Mayya,RU,61.7333,130.2811,69.12,82,100,4.12,overcast clouds
650,Plouzane,FR,48.3833,-4.6167,64.45,91,100,6.91,overcast clouds
651,Ca Mau,VN,9.1769,105.15,77.77,92,100,3.44,overcast clouds
652,Kasempa,ZM,-13.4584,25.8338,58.55,41,0,4.18,clear sky
653,Roswell,US,34.0232,-84.3616,83.26,85,40,5.75,thunderstorm
654,Waddan,LY,29.1614,16.139,82.89,48,0,17.18,clear sky
655,Dosso,NE,13.049,3.1937,87.4,48,75,3.71,broken clouds
656,Devonport,AU,-41.1667,146.35,49.08,77,99,13.06,overcast clouds
657,Kununurra,AU,-15.7667,128.7333,51.78,87,18,0.0,few clouds
658,Moengo,SR,5.6167,-54.4,75.94,91,46,3.15,scattered clouds
659,Coahuayana,MX,18.7333,-103.6833,87.53,62,96,5.86,overcast clouds
660,Santiago De Cao,PE,-7.9589,-79.2392,62.73,82,67,11.5,fog
661,Saint-Francois,FR,46.4154,3.9054,67.44,64,0,2.3,clear sky
662,Brae,GB,60.3964,-1.353,52.68,82,29,13.85,scattered clouds
663,Rodos,GR,36.4408,28.2225,78.46,71,0,13.8,clear sky
664,Takab,IR,36.4009,47.1133,72.0,36,39,5.1,scattered clouds
665,San,ML,13.3034,-4.8956,79.52,67,70,4.25,broken clouds
666,Ola,RU,59.5833,151.2833,59.14,83,100,3.04,overcast clouds
667,Port Augusta,AU,-32.5,137.7667,57.65,33,100,16.64,light rain
668,Poninka,UA,50.1849,27.5363,66.54,48,99,8.23,overcast clouds
669,Tateyama,JP,34.9833,139.8667,86.09,84,51,12.57,broken clouds
670,Tokur,RU,53.1333,132.9,61.05,89,80,1.34,broken clouds
671,Xacmaz,AZ,41.4635,48.806,73.38,70,97,4.07,overcast clouds
672,Tornio,FI,65.8481,24.1466,53.62,76,100,7.2,overcast clouds
673,Bac Lieu,VN,9.285,105.7244,80.46,85,100,7.27,overcast clouds
674,Suleja,NG,9.1758,7.1808,70.65,97,100,2.44,light rain
675,Houma,US,29.5958,-90.7195,90.0,68,0,3.44,clear sky
676,Ferry Pass,US,30.5102,-87.2125,93.2,67,0,9.22,clear sky
677,Santiago Del Estero,AR,-27.7951,-64.2615,69.78,27,5,8.68,clear sky
678,Leningradskiy,RU,69.3833,178.4167,50.56,60,82,6.24,broken clouds
679,Helong,CN,42.5397,128.9972,72.79,93,99,1.43,overcast clouds
680,Sechura,PE,-5.5569,-80.8222,71.51,64,13,18.07,few clouds
681,Cuamba,MZ,-14.8031,36.5372,63.05,54,6,2.44,clear sky
682,Santa Vitoria Do Palmar,BR,-33.5189,-53.3681,50.7,75,1,3.22,clear sky
683,Sortino,IT,37.1566,15.026,78.76,56,0,1.43,clear sky
684,Gurupa,BR,-1.405,-51.64,76.15,89,70,6.35,moderate rain
685,Los Llanos De Aridane,ES,28.6585,-17.9182,69.55,92,100,14.97,overcast clouds
686,Muros,ES,42.7762,-9.0603,72.09,65,0,13.31,clear sky
687,Qaqortoq,GL,60.7167,-46.0333,44.92,89,15,5.84,few clouds
688,Divnoye,RU,45.9089,43.3547,82.29,44,93,9.44,overcast clouds
689,Outlook,CA,51.5001,-107.0513,71.24,62,88,13.31,overcast clouds
690,Kalmunai,LK,7.4167,81.8167,78.22,83,100,5.26,overcast clouds
691,Santana Do Acarau,BR,-3.4606,-40.2122,76.91,84,100,6.42,overcast clouds
692,Puerto Escondido,MX,15.85,-97.0667,86.83,66,75,8.05,broken clouds
693,Nuuk,GL,64.1835,-51.7216,47.01,81,40,11.5,scattered clouds
694,Arlit,NE,18.7369,7.3853,96.94,9,50,9.51,scattered clouds
